"","Site","lambda","ID1","lat","long","el","boot.min","boot.max"
"1","CALAPOOIA",1.30301962634615,5,44.359642,-122.842903,146,0.803265950127309,1.31465875278994
"2","COAST",1.33731969669001,3,43.6517,-123.087967,260,0.95178586643515,1.32865730159303
"3","HUNTER",0.200857823049325,8,44.922787,-123.327316,101,0.0666943387470881,0.293877396418269
"4","LOOK",0.312662865421581,9,43.144088,-123.475052,176,0.0952701261389368,0.431934853556846
"5","MOSBY",0.916727204544141,4,43.721298,-122.976311,243,0.519496059206939,0.951020325735609
"6","ROCK",0.603537943260907,1,43.37876,-122.952072,326,0.349535534699703,0.669646562602244
"7","THOMAS",2.41343572246477,7,44.711785,-122.61087,229,1.57883786795798,2.12763310395491
"8","WILEY",1.10981914178498,6,44.412022,-122.675446,176,0.392586647453762,1.27118560528243
