"","Site","lambda","ID1","lat","long","el","lower.bias","upper.bias","lower","upper"
"1","CALAPOOIA",1.30301962634615,5,44.359642,-122.842903,146,0.902101481529782,1.90459584552593,0.960885664610436,1.76436165488469
"2","COAST",1.33731969669001,3,43.6517,-123.087967,260,1.05847272325003,1.79584388193077,1.08160494494814,1.67001296541451
"3","HUNTER",0.200857823049325,8,44.922787,-123.327316,101,0.113276946939278,0.535719329422925,0.0881620540347141,0.347899541187094
"4","LOOK",0.312662865421581,9,43.144088,-123.475052,176,0.152177317840688,0.588448522521729,0.102878422648691,0.450856752449859
"5","MOSBY",0.916727204544141,4,43.721298,-122.976311,243,0.624506231350864,1.37847500108121,0.600667038834095,1.17214297919468
"6","ROCK",0.603537943260907,1,43.37876,-122.952072,326,0.431693117442936,0.873981593595167,0.377583322737626,0.744837051995847
"7","THOMAS",2.41343572246477,7,44.711785,-122.61087,229,1.94576161054356,3.36425190002006,1.98095172587586,3.05453084681877
"8","WILEY",1.10981914178498,6,44.412022,-122.675446,176,0.474047770792604,2.13228036951113,0.460683500536558,1.75345571197491
